$GPGGA,075942.00,5939.93188,N,01046.67778,E,2,28,0.5,103.49,M,40.68,M,1.8,0123*48
$GPGSV,3,1,12,24,67,157,52,25,24,245,45,06,13,101,39,14,17,322,38*7D
$GPGSV,3,2,12,17,33,051,48,32,30,309,46,19,47,074,48,12,62,230,51*79
$GPGSV,3,3,12,22,06,005,38,01,05,358,29,10,08,269,39,15,08,184,44*7C
$GLGSV,3,1,10,76,66,292,49,84,34,034,44,67,33,322,48,66,33,257,49*6C
$GLGSV,3,2,10,85,44,111,49,75,64,084,51,77,05,279,37,68,02,007,*6A
$GLGSV,3,3,10,74,09,093,45,86,07,158,38*6B
$GAGSV,2,1,07,30,79,108,50,11,10,014,38,07,22,217,43,19,21,325,38*62
$GAGSV,2,2,07,02,26,088,43,14,46,129,49,27,44,262,46*5F
$BDGSV,1,1,02,24,60,270,52,05,11,128,35*60
$GPGGA,075943.00,5939.93188,N,01046.67778,E,2,28,0.5,103.48,M,40.68,M,2.8,0123*4B
$GPGSV,3,1,12,24,67,157,52,25,24,245,44,06,13,101,40,14,17,322,38*72
$GPGSV,3,2,12,17,33,051,48,32,30,309,46,19,47,074,48,12,62,230,51*79
$GPGSV,3,3,12,22,06,005,39,01,05,358,29,10,07,269,39,15,08,184,44*72
$GLGSV,3,1,10,76,66,292,49,84,34,034,44,67,33,322,48,66,33,257,49*6C
$GLGSV,3,2,10,85,44,111,49,75,64,084,51,77,05,279,37,68,02,007,*6A
$GLGSV,3,3,10,74,09,093,45,86,07,158,38*6B
$GAGSV,2,1,07,30,79,108,50,11,10,014,38,07,22,217,43,19,21,325,37*6D
$GAGSV,2,2,07,02,26,088,43,14,46,129,49,27,44,262,46*5F
$BDGSV,1,1,02,24,60,270,52,05,11,128,35*60
$GPGGA,075943.10,5939.93188,N,01046.67779,E,2,28,0.5,103.48,M,40.68,M,2.9,0123*4A
$GPGSV,3,1,12,24,67,157,52,25,24,245,44,06,13,101,40,14,17,322,38*72
$GPGSV,3,2,12,17,33,051,48,32,30,309,46,19,47,074,48,12,62,230,51*79
$GPGSV,3,3,12,22,06,005,38,01,05,358,29,10,07,269,39,15,08,184,44*73
$GLGSV,3,1,10,76,66,292,49,84,34,034,44,67,33,322,48,66,33,257,49*6C
$GLGSV,3,2,10,85,44,111,49,75,64,084,51,77,05,279,37,68,02,007,*6A
$GLGSV,3,3,10,74,09,093,45,86,07,158,38*6B
$GAGSV,2,1,07,30,79,108,50,11,10,014,38,07,22,217,43,19,21,325,37*6D
$GAGSV,2,2,07,02,26,088,43,14,46,129,49,27,44,262,46*5F
$BDGSV,1,1,02,24,60,270,52,05,11,128,35*60
$GPGGA,075944.00,5939.93188,N,01046.67778,E,2,28,0.5,103.48,M,40.68,M,2.4,0123*40
$GPGSV,3,1,12,24,67,157,52,25,24,245,45,06,13,101,40,14,17,322,38*73
$GPGSV,3,2,12,17,33,051,48,32,30,309,46,19,47,074,48,12,62,230,51*79
$GPGSV,3,3,12,22,06,005,37,01,05,358,29,10,07,269,39,15,08,184,44*7C
$GLGSV,3,1,10,76,66,292,48,84,34,034,44,67,33,322,47,66,33,257,49*62
$GLGSV,3,2,10,85,44,111,49,75,64,084,51,77,05,279,37,68,02,007,*6A
$GLGSV,3,3,10,74,09,093,46,86,07,158,38*68
$GAGSV,2,1,07,30,79,108,50,11,10,014,38,07,22,217,43,19,21,325,38*62
$GAGSV,2,2,07,02,26,088,43,14,46,129,49,27,44,262,46*5F
$BDGSV,1,1,02,24,60,270,52,05,11,128,35*60
$GPGGA,075945.00,5939.93188,N,01046.67779,E,2,28,0.5,103.47,M,40.68,M,3.0,0123*4A
$GPGSV,3,1,12,24,67,157,52,25,24,245,44,06,13,101,40,14,17,322,38*72
$GPGSV,3,2,12,17,33,051,48,32,30,309,46,19,47,074,48,12,62,230,51*79
$GPGSV,3,3,12,22,06,005,37,01,05,358,29,10,07,269,39,15,08,184,44*7C
$GLGSV,3,1,10,76,66,292,48,84,34,034,43,67,33,322,48,66,33,257,49*6A
$GLGSV,3,2,10,85,44,111,49,75,64,084,51,77,05,279,36,68,02,007,*6B
$GLGSV,3,3,10,74,09,093,45,86,07,158,39*6A
$GAGSV,2,1,07,30,79,108,50,11,10,014,38,07,22,217,43,19,21,325,38*62
$GAGSV,2,2,07,02,26,088,42,14,46,129,49,27,44,262,46*5E
$BDGSV,1,1,02,24,60,270,52,05,11,128,35*60
$GPGGA,075946.00,5939.93188,N,01046.67779,E,2,28,0.5,103.46,M,40.68,M,1.8,0123*42
$GPGSV,3,1,12,24,67,157,52,25,24,245,44,06,13,101,40,14,17,322,38*72
$GPGSV,3,2,12,17,33,051,48,32,30,309,46,19,47,074,48,12,62,230,51*79
$GPGSV,3,3,12,22,06,005,38,01,05,358,28,10,07,269,39,15,08,184,45*73
$GLGSV,3,1,10,76,66,292,48,84,34,034,43,67,33,322,48,66,33,257,49*6A
$GLGSV,3,2,10,85,44,111,49,75,64,084,51,77,05,279,37,68,02,007,*6A
$GLGSV,3,3,10,74,09,093,46,86,07,158,38*68
$GAGSV,2,1,07,30,79,108,50,11,10,014,38,07,22,217,43,19,21,325,38*62
$GAGSV,2,2,07,02,26,088,43,14,46,129,49,27,44,262,46*5F
$BDGSV,1,1,02,24,60,270,52,05,11,128,35*60
$GPGGA,075947.00,5939.93188,N,01046.67780,E,2,28,0.5,103.45,M,40.68,M,2.8,0123*45
$GPGSV,3,1,12,24,67,157,52,25,24,245,44,06,13,101,40,14,17,322,38*72
$GPGSV,3,2,12,17,33,051,47,32,30,309,46,19,47,074,48,12,62,230,51*76
$GPGSV,3,3,12,22,06,005,37,01,05,358,27,10,07,269,40,15,08,184,45*7D
$GLGSV,3,1,10,76,66,292,48,84,34,034,43,67,33,322,48,66,33,257,49*6A
$GLGSV,3,2,10,85,44,111,49,75,64,084,51,77,05,279,37,68,02,007,*6A
$GLGSV,3,3,10,74,09,093,46,86,07,158,38*68
$GAGSV,2,1,07,30,79,108,50,11,10,014,38,07,22,217,43,19,21,325,38*62
$GAGSV,2,2,07,02,26,088,43,14,46,129,49,27,44,262,46*5F
$BDGSV,1,1,02,24,60,270,52,05,11,128,36*63
$GPGGA,075948.00,5939.93188,N,01046.67780,E,2,28,0.5,103.45,M,40.68,M,2.4,0123*46
$GPGSV,3,1,12,24,67,157,52,25,24,245,44,06,13,101,41,14,17,322,39*72
$GPGSV,3,2,12,17,33,051,48,32,30,309,46,19,47,074,48,12,62,230,51*79
$GPGSV,3,3,12,22,06,005,37,01,05,358,27,10,07,269,40,15,08,184,45*7D
$GLGSV,3,1,10,76,66,292,48,84,34,034,43,67,33,322,48,66,33,257,49*6A
$GLGSV,3,2,10,85,44,111,49,75,64,084,51,77,05,279,37,68,02,007,*6A
$GLGSV,3,3,10,74,09,093,45,86,07,158,40*64
$GAGSV,2,1,07,30,79,108,50,11,10,014,38,07,22,217,43,19,21,325,38*62
$GAGSV,2,2,07,02,26,088,43,14,46,129,49,27,44,262,46*5F
$BDGSV,1,1,02,24,60,270,52,05,11,128,36*63
$GPGGA,075949.00,5939.93189,N,01046.67780,E,2,28,0.5,103.45,M,40.68,M,3.0,0123*43
$GPGSV,3,1,12,24,67,157,52,25,24,245,44,06,13,101,40,14,17,322,39*73
$GPGSV,3,2,12,17,33,051,48,32,30,309,46,19,47,073,48,12,62,230,51*7E
$GPGSV,3,3,12,22,06,005,38,01,05,358,29,10,07,269,39,15,08,184,44*73
$GLGSV,3,1,10,76,66,292,48,84,34,034,43,67,33,322,48,66,33,257,49*6A
$GLGSV,3,2,10,85,44,111,49,75,64,084,51,77,05,279,37,68,02,007,*6A
$GLGSV,3,3,10,74,09,093,46,86,07,158,40*67
$GAGSV,2,1,07,30,79,108,50,11,10,014,38,07,22,217,43,19,21,325,38*62
$GAGSV,2,2,07,02,26,088,43,14,46,129,49,27,44,262,46*5F
$BDGSV,1,1,02,24,60,270,52,05,11,128,35*60
$GPGGA,075950.00,5939.93189,N,01046.67780,E,2,28,0.5,103.44,M,40.68,M,1.8,0123*40
$GPGSV,3,1,12,24,67,157,52,25,24,245,45,06,13,101,41,14,17,322,39*73
$GPGSV,3,2,12,17,33,051,48,32,30,309,46,19,47,073,48,12,62,230,51*7E
$GPGSV,3,3,12,22,06,005,37,01,05,358,27,10,07,269,39,15,08,184,44*72
$GLGSV,3,1,10,76,66,292,48,84,34,034,43,67,33,322,48,66,33,257,49*6A
$GLGSV,3,2,10,85,44,111,49,75,64,084,51,77,05,279,38,68,02,007,*65
$GLGSV,3,3,10,74,09,093,45,86,07,158,40*64
$GAGSV,2,1,07,30,79,108,50,11,10,014,38,07,22,217,43,19,21,325,38*62
$GAGSV,2,2,07,02,26,088,43,14,46,129,50,27,44,262,46*57
$BDGSV,1,1,02,24,60,270,52,05,11,128,36*63
$GPGGA,075951.00,5939.93189,N,01046.67780,E,2,28,0.5,103.45,M,40.68,M,2.8,0123*43
$GPGSV,3,1,12,24,67,157,52,25,24,245,45,06,13,101,41,14,17,322,39*73
$GPGSV,3,2,12,17,33,051,48,32,30,309,46,19,47,073,48,12,62,230,51*7E
$GPGSV,3,3,12,22,06,005,37,01,05,358,25,10,07,269,40,15,08,184,43*79
$GLGSV,3,1,10,76,66,292,49,84,34,034,43,67,33,322,48,66,33,257,49*6B
$GLGSV,3,2,10,85,44,111,49,75,64,084,51,77,05,279,37,68,02,007,*6A
$GLGSV,3,3,10,74,09,093,46,86,07,158,40*67
$GAGSV,2,1,07,30,79,108,50,11,10,014,38,07,22,217,43,19,21,325,38*62
$GAGSV,2,2,07,02,26,088,43,14,46,129,49,27,44,262,46*5F
$BDGSV,1,1,02,24,60,270,52,05,11,128,35*60
$GPGGA,075952.00,5939.93189,N,01046.67780,E,2,28,0.5,103.46,M,40.68,M,2.3,0123*48
$GPGSV,3,1,12,24,67,157,52,25,24,245,44,06,13,101,42,14,17,322,40*7F
$GPGSV,3,2,12,17,33,051,48,32,30,309,45,19,47,073,48,12,62,230,51*7D
$GPGSV,3,3,12,22,06,005,37,01,05,358,26,10,07,269,40,15,08,184,43*7A
$GLGSV,3,1,10,76,66,292,49,84,34,034,43,67,33,322,48,66,33,257,49*6B
$GLGSV,3,2,10,85,44,111,49,75,64,084,51,77,05,279,37,68,02,007,*6A
$GLGSV,3,3,10,74,09,093,45,86,07,158,39*6A
$GAGSV,2,1,07,30,79,108,50,11,10,014,38,07,22,217,43,19,21,325,38*62
$GAGSV,2,2,07,02,26,088,43,14,46,129,49,27,44,262,46*5F
$BDGSV,1,1,02,24,60,270,52,05,11,128,35*60
$GPGGA,075953.00,5939.93189,N,01046.67780,E,2,28,0.5,103.46,M,40.68,M,2.9,0123*43
$GPGSV,3,1,12,24,67,157,52,25,24,245,45,06,13,101,42,14,17,322,40*7E
$GPGSV,3,2,12,17,33,051,47,32,30,309,46,19,47,073,48,12,62,230,51*71
$GPGSV,3,3,12,22,06,005,37,01,05,358,24,10,07,269,40,15,08,184,43*78
$GLGSV,3,1,10,76,66,292,49,84,34,034,43,67,33,322,48,66,33,257,49*6B
$GLGSV,3,2,10,85,44,111,49,75,64,084,51,77,05,279,37,68,02,007,*6A
$GLGSV,3,3,10,74,09,093,45,86,07,158,39*6A
$GAGSV,2,1,07,30,79,108,50,11,10,014,38,07,22,217,43,19,21,325,38*62
$GAGSV,2,2,07,02,26,088,43,14,46,129,50,27,44,262,46*57
$BDGSV,1,1,02,24,60,270,52,05,11,128,35*60
$GPGGA,075954.00,5939.93189,N,01046.67780,E,2,28,0.5,103.47,M,40.68,M,1.9,0123*46
$GPGSV,3,1,12,24,67,157,52,25,24,245,45,06,13,101,41,14,17,322,40*7D
$GPGSV,3,2,12,17,33,051,47,32,30,309,46,19,47,073,48,12,62,230,51*71
$GPGSV,3,3,12,22,06,005,37,01,05,358,24,10,07,269,40,15,08,184,43*78
$GLGSV,3,1,10,76,66,292,49,84,34,034,43,67,33,322,48,66,33,257,49*6B
$GLGSV,3,2,10,85,44,111,49,75,64,084,51,77,05,279,37,68,02,007,*6A
$GLGSV,3,3,10,74,09,093,45,86,07,158,39*6A
$GAGSV,2,1,07,30,79,108,50,11,10,014,38,07,22,217,43,19,21,325,38*62
$GAGSV,2,2,07,02,26,088,43,14,46,129,50,27,44,262,46*57
$BDGSV,1,1,02,24,60,270,52,05,11,128,35*60
$GPGGA,075955.00,5939.93189,N,01046.67780,E,2,28,0.5,103.47,M,40.68,M,2.9,0123*44
$GPGSV,3,1,12,24,67,157,52,25,24,245,45,06,13,101,42,14,17,322,40*7E
$GPGSV,3,2,12,17,33,051,47,32,30,309,46,19,47,073,48,12,62,230,51*71
$GPGSV,3,3,12,22,06,005,37,01,05,358,25,10,07,269,40,15,08,184,43*79
$GLGSV,3,1,10,76,66,292,49,84,34,034,43,67,33,322,48,66,33,257,49*6B
$GLGSV,3,2,10,85,44,111,49,75,64,084,51,77,05,279,38,68,02,007,*65
$GLGSV,3,3,10,74,09,093,44,86,07,158,39*6B
$GAGSV,2,1,07,30,79,108,50,11,10,014,37,07,22,217,43,19,21,325,38*6D
$GAGSV,2,2,07,02,26,088,43,14,46,129,50,27,44,262,46*57
$BDGSV,1,1,02,24,60,270,52,05,11,128,35*60
$GPGGA,075956.00,5939.93189,N,01046.67780,E,2,28,0.5,103.46,M,40.68,M,2.3,0123*4C
$GPGSV,3,1,12,24,67,157,52,25,24,245,44,06,13,101,42,14,17,322,40*7F
$GPGSV,3,2,12,17,33,051,47,32,30,309,46,19,47,073,48,12,62,230,51*71
$GPGSV,3,3,12,22,06,005,37,01,05,358,25,10,07,269,39,15,08,184,43*77
$GLGSV,3,1,10,76,66,292,49,84,34,034,43,67,33,322,48,66,33,257,49*6B
$GLGSV,3,2,10,85,44,111,49,75,64,084,51,77,05,279,37,68,02,007,*6A
$GLGSV,3,3,10,74,09,093,45,86,07,158,39*6A
$GAGSV,2,1,07,30,79,108,50,11,10,014,37,07,22,217,43,19,21,325,38*6D
$GAGSV,2,2,07,02,26,088,43,14,46,129,50,27,44,262,46*57
$BDGSV,1,1,02,24,60,270,52,05,11,128,35*60
$GPGGA,075957.00,5939.93188,N,01046.67780,E,2,28,0.5,103.46,M,40.68,M,2.9,0123*46
$GPGSV,3,1,12,24,67,157,52,25,24,245,44,06,13,101,42,14,17,322,40*7F
$GPGSV,3,2,12,17,33,051,47,32,30,309,46,19,47,073,48,12,62,230,51*71
$GPGSV,3,3,12,22,06,005,37,01,05,358,23,10,07,269,39,15,08,184,43*71
$GLGSV,3,1,10,76,66,292,49,84,34,034,43,67,33,322,48,66,33,257,49*6B
$GLGSV,3,2,10,85,44,111,49,75,64,084,51,77,05,279,38,68,02,007,*65
$GLGSV,3,3,10,74,09,093,45,86,07,158,39*6A
$GAGSV,2,1,07,30,79,108,50,11,10,014,38,07,22,217,43,19,21,325,38*62
$GAGSV,2,2,07,02,26,088,43,14,46,129,49,27,44,262,46*5F
$BDGSV,1,1,02,24,60,270,52,05,11,128,36*63
$GPGGA,075958.00,5939.93188,N,01046.67781,E,2,28,0.5,103.47,M,40.68,M,1.9,0123*4A
$GPGSV,3,1,12,24,67,157,52,25,24,245,44,06,13,101,42,14,17,322,41*7E
$GPGSV,3,2,12,17,33,051,47,32,30,309,46,19,46,073,48,12,62,230,51*70
$GPGSV,3,3,12,22,06,005,38,01,05,358,24,10,07,269,40,15,08,184,43*77
$GLGSV,3,1,10,76,66,292,49,84,34,034,43,67,33,322,48,66,33,257,49*6B
$GLGSV,3,2,10,85,44,111,49,75,64,084,51,77,05,279,37,68,02,007,*6A
$GLGSV,3,3,10,74,09,094,45,86,07,158,39*6D
$GAGSV,2,1,07,30,79,108,50,11,10,014,38,07,22,217,43,19,21,325,38*62
$GAGSV,2,2,07,02,26,088,43,14,46,129,50,27,44,262,46*57
$BDGSV,1,1,02,24,60,270,52,05,11,128,35*60
$GPGGA,075959.00,5939.93188,N,01046.67781,E,2,28,0.5,103.48,M,40.68,M,2.9,0123*47
$GPGSV,3,1,12,24,67,157,52,25,24,245,44,06,13,101,41,14,17,322,41*7D
$GPGSV,3,2,12,17,33,051,47,32,30,309,46,19,46,073,48,12,62,230,51*70
$GPGSV,3,3,12,22,06,005,38,01,05,358,25,10,07,269,40,15,08,184,43*76
$GLGSV,3,1,10,76,66,292,49,84,34,034,43,67,33,322,48,66,33,257,49*6B
$GLGSV,3,2,10,85,44,111,49,75,64,084,51,77,05,279,38,68,02,007,*65
$GLGSV,3,3,10,74,09,094,44,86,07,158,39*6C
$GAGSV,2,1,07,30,79,108,50,11,10,014,38,07,22,217,43,19,21,325,37*6D
$GAGSV,2,2,07,02,26,088,43,14,46,129,49,27,44,262,46*5F
$BDGSV,1,1,02,24,60,270,52,05,11,128,35*60
$GPGGA,080000.00,5939.93188,N,01046.67781,E,2,28,0.5,103.48,M,40.68,M,2.3,0123*42
$GPGSV,3,1,12,24,67,157,52,25,24,245,44,06,13,101,41,14,17,322,41*7D
$GPGSV,3,2,12,17,33,051,47,32,30,309,46,19,46,073,48,12,62,230,51*70
$GPGSV,3,3,12,22,06,005,38,01,05,358,25,10,07,269,40,15,08,184,44*71
$GLGSV,3,1,10,76,66,292,49,84,34,034,43,67,33,322,48,66,33,257,49*6B
$GLGSV,3,2,10,85,44,111,49,75,64,084,51,77,05,279,38,68,02,007,*65
$GLGSV,3,3,10,74,09,094,44,86,07,158,39*6C
$GAGSV,2,1,07,30,79,108,50,11,10,014,38,07,22,217,43,19,21,325,38*62
$GAGSV,2,2,07,02,26,088,43,14,46,129,49,27,44,262,46*5F
$BDGSV,1,1,02,24,60,270,52,05,11,128,35*60
$GPGGA,080001.00,5939.93188,N,01046.67781,E,2,28,0.5,103.49,M,40.68,M,2.9,0123*48
$GPGSV,3,1,12,24,67,157,52,25,24,245,44,06,13,101,42,14,17,322,41*7E
$GPGSV,3,2,12,17,33,051,47,32,30,309,46,19,46,073,48,12,62,230,51*70
$GPGSV,3,3,12,22,06,005,38,01,05,358,27,10,07,269,40,15,08,184,43*74
$GLGSV,3,1,10,76,66,292,49,84,34,034,43,67,33,322,48,66,33,257,49*6B
$GLGSV,3,2,10,85,44,111,49,75,64,084,51,77,05,279,38,68,02,007,*65
$GLGSV,3,3,10,74,09,094,45,86,07,158,40*63
$GAGSV,2,1,07,30,79,108,50,11,10,014,38,07,22,217,43,19,21,325,38*62
$GAGSV,2,2,07,02,26,088,42,14,46,129,49,27,44,262,46*5E
$BDGSV,1,1,02,24,60,270,52,05,11,128,35*60
$GPGGA,080002.00,5939.93188,N,01046.67780,E,2,28,0.5,103.48,M,40.68,M,1.9,0123*48
$GPGSV,3,1,12,24,67,157,52,25,24,245,44,06,13,101,41,14,17,322,41*7D
$GPGSV,3,2,12,17,33,051,47,32,30,309,46,19,46,073,48,12,62,230,51*70
$GPGSV,3,3,12,22,06,005,37,01,05,358,27,10,07,269,40,15,08,184,43*7B
$GLGSV,3,1,10,76,66,292,49,84,34,034,43,67,33,322,48,66,33,257,49*6B
$GLGSV,3,2,10,85,44,111,49,75,64,084,51,77,05,279,38,68,02,007,*65
$GLGSV,3,3,10,74,09,094,45,86,07,158,40*63
$GAGSV,2,1,07,30,79,108,50,11,10,014,38,07,22,217,43,19,21,325,38*62
$GAGSV,2,2,07,02,26,088,42,14,46,129,49,27,44,262,46*5E
$BDGSV,1,1,02,24,60,270,52,05,11,128,35*60
$GPGGA,080003.00,5939.93188,N,01046.67781,E,2,28,0.5,103.48,M,40.68,M,2.9,0123*4B
$GPGSV,3,1,12,24,67,157,52,25,24,245,45,06,13,101,42,14,17,322,41*7F
$GPGSV,3,2,12,17,33,051,47,32,30,309,47,19,46,073,48,12,62,230,51*71
$GPGSV,3,3,12,22,06,005,37,01,05,358,26,10,07,269,40,15,08,184,42*7B
$GLGSV,3,1,10,76,66,292,49,84,34,034,43,67,33,322,48,66,33,257,49*6B
$GLGSV,3,2,10,85,44,111,49,75,64,084,51,77,05,279,38,68,02,007,*65
$GLGSV,3,3,10,74,09,094,45,86,07,158,39*6D
$GAGSV,2,1,07,30,79,108,50,11,10,014,37,07,22,217,43,19,21,325,38*6D
$GAGSV,2,2,07,02,26,088,42,14,46,129,49,27,44,262,45*5D
$BDGSV,1,1,02,24,60,270,52,05,11,128,35*60
$GPGGA,080004.00,5939.93188,N,01046.67781,E,2,28,0.5,103.48,M,40.68,M,2.3,0123*46
$GPGSV,3,1,12,24,67,157,52,25,24,245,44,06,13,101,42,14,17,322,40*7F
$GPGSV,3,2,12,17,33,051,47,32,30,309,46,19,46,073,48,12,62,230,51*70
$GPGSV,3,3,12,22,06,005,38,01,05,358,27,10,07,269,40,15,08,184,42*75
$GLGSV,3,1,10,76,66,292,49,84,34,034,43,67,33,322,48,66,33,257,49*6B
$GLGSV,3,2,10,85,44,111,49,75,64,084,51,77,05,279,38,68,02,007,*65
$GLGSV,3,3,10,74,09,094,45,86,07,158,39*6D
$GAGSV,2,1,07,30,79,108,50,11,10,014,37,07,22,217,43,19,21,325,38*6D
$GAGSV,2,2,07,02,26,088,42,14,46,129,49,27,44,262,45*5D
$BDGSV,1,1,02,24,60,270,52,05,11,128,35*60
$GPGGA,080005.00,5939.93188,N,01046.67781,E,2,28,0.5,103.48,M,40.68,M,2.9,0123*4D
$GPGSV,3,1,12,24,67,157,52,25,24,245,44,06,13,101,42,14,17,322,41*7E
$GPGSV,3,2,12,17,33,051,47,32,30,309,46,19,46,073,48,12,62,230,51*70
$GPGSV,3,3,12,22,06,005,38,01,05,358,28,10,07,269,41,15,08,184,41*78
$GLGSV,3,1,10,76,66,292,49,84,34,034,43,67,33,322,48,66,33,257,49*6B
$GLGSV,3,2,10,85,44,111,49,75,64,084,51,77,05,279,38,68,02,007,*65
$GLGSV,3,3,10,74,09,094,45,86,07,158,38*6C
$GAGSV,2,1,07,30,79,108,50,11,10,014,37,07,22,217,43,19,21,325,38*6D
$GAGSV,2,2,07,02,26,088,43,14,46,129,49,27,44,262,46*5F
$BDGSV,1,1,02,24,60,270,52,05,11,128,35*60
$GPGGA,080006.00,5939.93187,N,01046.67781,E,2,28,0.5,103.49,M,40.68,M,1.9,0123*43
$GPGSV,3,1,12,24,67,157,52,25,24,245,44,06,13,101,42,14,17,322,40*7F
$GPGSV,3,2,12,17,33,051,47,32,30,309,47,19,46,073,48,12,62,230,51*71
$GPGSV,3,3,12,22,06,005,37,01,05,358,28,10,07,269,41,15,08,184,42*74
$GLGSV,3,1,10,76,66,292,49,84,34,034,42,67,33,322,48,66,33,257,49*6A
$GLGSV,3,2,10,85,44,111,49,75,64,084,51,77,05,279,38,68,02,007,*65
$GLGSV,3,3,10,74,09,094,45,86,07,158,38*6C
$GAGSV,2,1,07,30,79,108,50,11,10,014,37,07,22,217,43,19,21,325,38*6D
$GAGSV,2,2,07,02,26,088,42,14,46,129,49,27,44,262,46*5E
$BDGSV,1,1,02,24,60,270,52,05,11,128,35*60
$GPGGA,080007.00,5939.93188,N,01046.67781,E,2,28,0.5,103.49,M,40.68,M,2.9,0123*4E
$GPGSV,3,1,12,24,67,157,52,25,24,245,45,06,13,101,42,14,17,322,40*7E
$GPGSV,3,2,12,17,33,051,47,32,30,309,47,19,46,073,49,12,62,230,51*70
$GPGSV,3,3,12,22,06,005,37,01,05,358,27,10,07,269,40,15,08,184,42*7A
$GLGSV,3,1,10,76,66,292,49,84,34,034,42,67,33,322,48,66,33,257,49*6A
$GLGSV,3,2,10,85,44,111,49,75,64,084,51,77,05,279,38,68,02,007,*65
$GLGSV,3,3,10,74,09,094,45,86,07,158,38*6C
$GAGSV,2,1,07,30,79,108,50,11,10,014,38,07,22,217,43,19,21,325,38*62
$GAGSV,2,2,07,02,26,088,43,14,46,129,49,27,44,262,45*5C
$BDGSV,1,1,02,24,60,270,52,05,11,128,35*60
$GPGGA,080008.00,5939.93188,N,01046.67781,E,2,28,0.5,103.48,M,40.68,M,2.3,0123*4A
$GPGSV,3,1,12,24,67,157,52,25,24,245,45,06,13,101,41,14,17,322,40*7D
$GPGSV,3,2,12,17,33,051,47,32,30,309,47,19,46,073,49,12,62,230,51*70
$GPGSV,3,3,12,22,06,005,36,01,05,358,29,10,07,269,40,15,08,184,42*75
$GLGSV,3,1,10,76,66,292,49,84,34,034,43,67,33,322,48,66,33,257,50*63
$GLGSV,3,2,10,85,44,111,49,75,64,084,51,77,05,279,38,68,02,007,*65
$GLGSV,3,3,10,74,09,094,44,86,07,158,37*62
$GAGSV,2,1,07,30,79,108,50,11,10,014,38,07,22,217,43,19,21,325,38*62
$GAGSV,2,2,07,02,26,088,43,14,46,129,49,27,44,262,45*5C
$BDGSV,1,1,02,24,60,270,52,05,11,128,36*63
$GPGGA,080009.00,5939.93188,N,01046.67781,E,2,28,0.5,103.48,M,40.68,M,2.9,0123*41
$GPGSV,3,1,12,24,67,157,52,25,24,245,44,06,13,101,41,14,17,322,40*7C
$GPGSV,3,2,12,17,33,051,47,32,30,309,47,19,46,073,48,12,62,230,51*71
$GPGSV,3,3,12,22,06,005,34,01,05,358,28,10,07,269,41,15,08,184,42*77
$GLGSV,3,1,10,76,66,292,49,84,34,034,43,67,33,322,47,66,33,257,50*6C
$GLGSV,3,2,10,85,44,111,49,75,64,084,51,77,05,279,38,68,02,007,*65
$GLGSV,3,3,10,74,09,094,45,86,07,158,38*6C
$GAGSV,2,1,07,30,79,108,50,11,10,014,38,07,22,217,43,19,21,325,38*62
$GAGSV,2,2,07,02,26,088,43,14,46,129,49,27,44,262,45*5C
$BDGSV,1,1,02,24,60,270,52,05,11,128,36*63
$GPGGA,080010.00,5939.93188,N,01046.67781,E,2,29,0.5,103.48,M,40.68,M,1.9,0123*4B
$GPGSV,3,1,12,24,67,157,52,25,24,245,44,06,13,101,41,14,17,322,40*7C
$GPGSV,3,2,12,17,33,051,47,32,30,309,46,19,46,073,49,12,62,230,51*71
$GPGSV,3,3,12,22,06,005,36,01,05,358,28,10,07,269,41,15,08,184,43*74
$GLGSV,3,1,10,76,66,292,49,84,34,034,43,67,33,322,48,66,33,257,49*6B
$GLGSV,3,2,10,85,44,111,49,75,64,084,51,77,05,279,37,68,02,007,*6A
$GLGSV,3,3,10,74,09,094,45,86,07,158,37*63
$GAGSV,2,1,07,30,79,108,50,11,10,014,38,07,22,217,43,19,21,325,38*62
$GAGSV,2,2,07,02,26,088,43,14,46,129,49,27,45,262,46*5E
$BDGSV,1,1,02,24,60,270,52,05,11,128,35*60
$GPGGA,080011.00,5939.93187,N,01046.67781,E,2,29,0.5,103.46,M,40.68,M,2.9,0123*48
$GPGSV,3,1,12,24,67,157,52,25,24,245,44,06,13,101,41,14,17,322,40*7C
$GPGSV,3,2,12,17,33,051,47,32,30,309,46,19,46,073,49,12,62,230,51*71
$GPGSV,3,3,12,22,06,005,36,01,05,358,29,10,07,269,40,15,08,184,43*74
$GLGSV,3,1,10,76,66,292,49,84,34,034,43,67,33,322,48,66,33,257,49*6B
$GLGSV,3,2,10,85,44,111,49,75,64,084,51,77,05,279,37,68,02,007,*6A
$GLGSV,3,3,10,74,09,094,44,86,07,158,37*62
$GAGSV,2,1,07,30,79,108,50,11,10,014,38,07,22,217,43,19,21,325,38*62
$GAGSV,2,2,07,02,26,088,43,14,46,129,49,27,45,262,46*5E
$BDGSV,1,1,02,24,60,270,52,05,11,128,36*63
$GPGGA,080012.00,5939.93187,N,01046.67782,E,2,29,0.5,103.46,M,40.68,M,2.3,0123*42
$GPGSV,3,1,12,24,67,157,52,25,24,245,44,06,13,101,41,14,17,322,40*7C
$GPGSV,3,2,12,17,33,051,47,32,30,309,46,19,46,073,49,12,62,230,51*71
$GPGSV,3,3,12,22,06,005,36,01,05,358,29,10,07,269,40,15,08,184,42*75
$GLGSV,3,1,10,76,66,292,49,84,34,034,43,67,33,322,48,66,33,257,49*6B
$GLGSV,3,2,10,85,44,111,48,75,64,084,51,77,05,279,38,68,02,007,*64
$GLGSV,3,3,10,74,09,094,44,86,07,158,37*62
$GAGSV,2,1,07,30,79,108,50,11,10,014,38,07,22,217,43,19,21,325,38*62
$GAGSV,2,2,07,02,26,088,43,14,46,129,49,27,45,262,46*5E
$BDGSV,1,1,02,24,60,270,52,05,11,128,35*60
$GPGGA,080013.00,5939.93187,N,01046.67782,E,2,29,0.5,103.44,M,40.68,M,2.9,0123*4B
$GPGSV,3,1,12,24,67,157,52,25,24,245,44,06,13,101,41,14,17,322,40*7C
$GPGSV,3,2,12,17,33,051,46,32,30,309,46,19,46,073,49,12,62,230,51*70
$GPGSV,3,3,12,22,06,005,36,01,05,358,29,10,07,269,40,15,08,184,42*75
$GLGSV,3,1,10,76,66,292,49,84,34,034,43,67,33,322,48,66,33,257,49*6B
$GLGSV,3,2,10,85,44,111,49,75,64,084,51,77,05,279,37,68,02,007,*6A
$GLGSV,3,3,10,74,09,094,45,86,07,158,36*62
$GAGSV,2,1,07,30,79,108,50,07,22,217,43,19,21,325,38,02,26,088,43*6C
$GAGSV,2,2,07,14,46,129,49,27,45,262,46,11,10,014,38*50
$BDGSV,1,1,02,24,60,270,52,05,11,128,35*60
$GPGGA,080014.00,5939.93187,N,01046.67782,E,2,29,0.5,103.45,M,40.68,M,1.9,0123*4E
$GPGSV,3,1,12,24,67,157,52,25,24,245,44,06,13,101,41,14,17,322,40*7C
$GPGSV,3,2,12,17,33,051,46,32,30,309,45,19,46,073,48,12,62,230,51*72
$GPGSV,3,3,12,22,06,005,35,01,05,358,30,10,07,269,39,15,08,184,41*73
$GLGSV,3,1,10,76,66,292,49,84,34,034,42,67,33,322,48,66,33,257,49*6A
$GLGSV,3,2,10,85,44,111,49,75,64,084,51,77,05,279,38,68,02,007,*65
$GLGSV,3,3,10,74,09,094,45,86,07,158,36*62
$GAGSV,2,1,07,30,79,108,50,07,22,217,43,19,21,325,38,02,26,088,43*6C
$GAGSV,2,2,07,14,46,129,49,27,45,262,46,11,10,014,38*50
$BDGSV,1,1,02,24,60,270,52,05,11,128,35*60
$GPGGA,080015.00,5939.93187,N,01046.67783,E,2,29,0.5,103.45,M,40.68,M,2.9,0123*4D
$GPGSV,3,1,12,24,67,157,52,25,24,245,44,06,13,101,41,14,17,322,39*72
$GPGSV,3,2,12,17,33,051,46,32,30,309,45,19,46,073,48,12,62,230,51*72
$GPGSV,3,3,12,22,06,005,35,01,05,358,29,10,07,269,39,15,08,184,43*79
$GLGSV,3,1,10,76,66,292,49,84,34,034,42,67,33,322,48,66,33,257,49*6A
$GLGSV,3,2,10,85,44,111,49,75,64,084,51,77,05,279,38,68,02,007,*65
$GLGSV,3,3,10,74,09,094,45,86,07,158,36*62
$GAGSV,2,1,07,30,79,108,50,07,22,217,43,19,21,325,38,02,26,088,43*6C
$GAGSV,2,2,07,14,46,129,49,27,45,262,46,11,10,014,38*50
$BDGSV,1,1,02,24,60,270,52,05,11,128,35*60
$GPGGA,080016.00,5939.93187,N,01046.67782,E,2,29,0.5,103.44,M,40.68,M,2.3,0123*44
$GPGSV,3,1,12,24,67,157,52,25,24,245,44,06,13,101,41,14,17,322,39*72
$GPGSV,3,2,12,17,33,051,46,32,30,309,46,19,46,073,48,12,62,230,51*71
$GPGSV,3,3,12,22,06,005,35,01,05,358,28,10,07,269,39,15,07,184,43*77
$GLGSV,3,1,10,76,66,292,49,84,34,034,42,67,33,322,48,66,33,257,49*6A
$GLGSV,3,2,10,85,44,111,49,75,64,084,51,77,05,279,37,68,02,007,*6A
$GLGSV,3,3,10,74,09,094,44,86,07,158,37*62
$GAGSV,2,1,07,30,79,108,50,07,22,217,43,19,21,325,38,02,26,088,42*6D
$GAGSV,2,2,07,14,46,129,49,27,45,262,46,11,10,014,38*50
$BDGSV,1,1,02,24,60,270,52,05,11,128,35*60
$GPGGA,080017.00,5939.93187,N,01046.67783,E,2,29,0.5,103.44,M,40.68,M,2.9,0123*4E
$GPGSV,3,1,12,24,67,157,52,25,24,245,44,06,13,101,41,14,17,322,39*72
$GPGSV,3,2,12,17,33,051,46,32,30,309,45,19,46,073,48,12,62,230,51*72
$GPGSV,3,3,12,22,06,005,34,01,05,358,29,10,07,269,39,15,07,184,43*77
$GLGSV,3,1,10,76,66,292,49,84,34,034,42,67,33,322,48,66,33,257,49*6A
$GLGSV,3,2,10,85,44,111,49,75,64,084,51,77,05,279,38,68,02,007,*65
$GLGSV,3,3,10,74,09,094,45,86,07,158,37*63
$GAGSV,2,1,07,30,79,108,50,07,22,217,43,19,21,325,38,02,26,088,42*6D
$GAGSV,2,2,07,14,46,129,49,27,45,262,46,11,10,014,38*50
$BDGSV,1,1,02,24,60,270,52,05,11,128,35*60
$GPGGA,080018.00,5939.93187,N,01046.67783,E,2,29,0.5,103.45,M,40.68,M,1.9,0123*43
$GPGSV,3,1,12,24,67,157,52,25,24,245,44,06,13,101,41,14,17,322,39*72
$GPGSV,3,2,12,17,33,051,46,32,30,309,46,19,46,073,48,12,62,230,51*71
$GPGSV,3,3,12,22,06,005,33,01,05,358,28,10,07,269,39,15,07,184,42*70
$GLGSV,3,1,10,76,66,292,49,84,34,034,42,67,33,322,48,66,33,257,49*6A
$GLGSV,3,2,10,85,44,111,49,75,64,084,51,77,05,279,37,68,02,007,*6A
$GLGSV,3,3,10,74,09,094,45,86,07,158,37*63
$GAGSV,2,1,07,30,79,108,50,07,22,217,43,19,21,325,38,02,26,088,42*6D
$GAGSV,2,2,07,14,46,129,49,27,45,262,46,11,10,014,38*50
$BDGSV,1,1,02,24,60,270,52,05,11,128,36*63
$GPGGA,080019.00,5939.93188,N,01046.67783,E,2,29,0.5,103.45,M,40.68,M,2.9,0123*4E
$GPGSV,3,1,12,24,67,157,52,25,24,245,45,06,13,101,41,14,17,322,38*72
$GPGSV,3,2,12,17,33,051,47,32,30,309,45,19,46,073,48,12,62,230,51*73
$GPGSV,3,3,12,22,06,005,33,01,05,358,28,10,07,269,39,15,07,184,42*70
$GLGSV,3,1,10,76,66,292,49,84,34,034,43,67,33,322,47,66,33,257,49*64
$GLGSV,3,2,10,85,44,111,49,75,64,084,51,77,05,279,37,68,02,007,*6A
$GLGSV,3,3,10,74,09,094,44,86,07,158,37*62
$GAGSV,2,1,07,30,79,108,50,07,22,217,43,19,21,325,39,02,26,088,42*6C
$GAGSV,2,2,07,14,46,129,49,27,45,262,46,11,10,014,38*50
$BDGSV,1,1,02,24,60,270,52,05,11,128,36*63
$GPGGA,080020.00,5939.93188,N,01046.67783,E,2,29,0.5,103.46,M,40.68,M,2.3,0123*4D
$GPGSV,3,1,12,24,67,157,52,25,24,245,45,06,13,101,40,14,17,322,38*73
$GPGSV,3,2,12,17,33,051,46,32,30,309,46,19,46,073,48,12,62,230,51*71
$GPGSV,3,3,12,22,06,005,33,01,05,358,29,10,07,269,39,15,07,184,41*72
$GLGSV,3,1,10,76,66,292,49,84,34,034,43,67,33,322,47,66,33,257,49*64
$GLGSV,3,2,10,85,44,111,49,75,64,084,51,77,05,279,37,68,02,007,*6A
$GLGSV,3,3,10,74,09,094,44,86,07,158,37*62
$GAGSV,2,1,07,30,79,108,50,07,22,217,43,19,21,325,39,02,26,088,42*6C
$GAGSV,2,2,07,14,46,129,49,27,45,262,46,11,10,014,38*50
$BDGSV,1,1,02,24,60,270,52,05,11,128,35*60
$GPGGA,080021.00,5939.93188,N,01046.67783,E,2,29,0.5,103.46,M,40.68,M,2.9,0123*46
$GPGSV,3,1,12,24,67,157,52,25,24,245,45,06,13,101,40,14,17,322,38*73
$GPGSV,3,2,12,17,33,051,46,32,30,309,46,19,46,073,48,12,62,230,51*71
$GPGSV,3,3,12,22,06,005,33,01,05,358,28,10,07,269,39,15,07,184,41*73
$GLGSV,3,1,10,76,66,292,49,84,34,034,43,67,33,322,47,66,33,257,49*64
$GLGSV,3,2,10,85,44,111,49,75,64,084,51,77,05,279,37,68,02,007,*6A
$GLGSV,3,3,10,74,09,094,44,86,07,158,38*6D
$GAGSV,2,1,07,30,79,108,50,07,22,217,43,19,21,325,38,02,26,088,43*6C
$GAGSV,2,2,07,14,46,129,49,27,45,262,46,11,10,014,38*50
$BDGSV,1,1,02,24,60,270,52,05,11,128,36*63
$GPGGA,080022.00,5939.93188,N,01046.67782,E,2,29,0.5,103.46,M,40.68,M,1.9,0123*47
$GPGSV,3,1,12,24,67,157,52,25,24,245,45,06,13,101,40,14,17,322,38*73
$GPGSV,3,2,12,17,33,051,46,32,30,309,46,19,46,073,48,12,62,230,51*71
$GPGSV,3,3,12,22,06,005,32,01,05,358,28,10,07,269,39,15,07,184,41*72
$GLGSV,3,1,10,76,66,292,49,84,34,034,43,67,33,322,47,66,33,257,49*64
$GLGSV,3,2,10,85,44,111,49,75,64,084,51,77,06,279,37,68,02,007,*69
$GLGSV,3,3,10,74,09,094,43,86,07,158,38*6A
$GAGSV,2,1,07,30,79,108,50,07,22,217,43,19,21,325,38,02,26,088,43*6C
$GAGSV,2,2,07,14,46,129,49,27,45,262,46,11,10,014,38*50
$BDGSV,1,1,02,24,60,270,52,05,11,128,35*60
$GPGGA,080023.00,5939.93188,N,01046.67782,E,2,29,0.5,103.45,M,40.68,M,2.9,0123*46
$GPGSV,3,1,12,24,67,157,52,25,24,245,45,06,13,101,41,14,17,322,38*72
$GPGSV,3,2,12,17,33,051,47,32,30,309,46,19,46,073,48,12,62,230,51*70
$GPGSV,3,3,12,22,06,005,31,01,05,358,28,10,07,269,39,15,07,184,41*71
$GLGSV,3,1,10,76,66,292,49,84,34,034,43,67,33,322,48,66,33,257,49*6B
$GLGSV,3,2,10,85,44,111,49,75,64,084,51,77,06,279,37,68,02,007,*69
$GLGSV,3,3,10,74,09,094,43,86,07,158,38*6A
$GAGSV,2,1,07,30,79,108,50,07,22,217,43,19,21,325,39,02,26,088,43*6D
$GAGSV,2,2,07,14,46,129,49,27,45,262,46,11,10,014,38*50
$BDGSV,1,1,02,24,60,270,52,05,11,128,35*60
$GPGGA,080024.00,5939.93188,N,01046.67782,E,2,29,0.5,103.45,M,40.68,M,2.3,0123*4B
$GPGSV,3,1,12,24,67,157,52,25,24,245,45,06,13,101,40,14,17,322,39*72
$GPGSV,3,2,12,17,33,051,47,32,30,309,45,19,46,073,48,12,62,230,51*73
$GPGSV,3,3,12,22,06,005,30,01,05,358,26,10,07,269,39,15,07,184,41*7E
$GLGSV,3,1,10,76,66,292,49,84,34,034,42,67,33,322,48,66,33,257,49*6A
$GLGSV,3,2,10,85,44,111,49,75,64,084,51,77,06,279,37,68,02,007,*69
$GLGSV,3,3,10,74,09,094,43,86,07,158,38*6A
$GAGSV,2,1,07,30,79,108,50,07,22,217,43,19,21,325,39,02,26,088,43*6D
$GAGSV,2,2,07,14,46,129,49,27,45,262,46,11,10,014,38*50
$BDGSV,1,1,02,24,60,270,52,05,11,128,35*60
$GPGGA,080025.00,5939.93188,N,01046.67782,E,2,29,0.5,103.45,M,40.68,M,2.9,0123*40
$GPGSV,3,1,12,24,67,157,52,25,24,245,45,06,13,101,40,14,17,322,39*72
$GPGSV,3,2,12,17,33,051,47,32,30,309,45,19,46,073,48,12,62,230,51*73
$GPGSV,3,3,12,22,06,005,31,01,05,358,25,10,07,269,39,15,07,184,42*7F
$GLGSV,3,1,10,76,66,292,49,84,34,034,42,67,33,322,48,66,33,257,49*6A
$GLGSV,3,2,10,85,44,111,49,75,64,084,51,77,06,279,37,68,02,007,*69
$GLGSV,3,3,10,74,09,094,42,86,07,158,38*6B
$GAGSV,2,1,07,30,79,107,50,07,22,217,43,19,21,325,38,02,26,088,43*63
$GAGSV,2,2,07,14,46,129,49,27,45,262,46,11,10,014,38*50
$BDGSV,1,1,02,24,61,270,52,05,11,128,36*62
$GPGGA,080026.00,5939.93188,N,01046.67783,E,2,29,0.5,103.44,M,40.68,M,1.9,0123*40
$GPGSV,3,1,12,24,67,157,52,25,24,245,45,06,13,101,40,14,17,322,39*72
$GPGSV,3,2,12,17,33,051,47,32,30,309,45,19,46,073,49,12,62,230,52*71
$GPGSV,3,3,12,22,06,005,29,01,05,358,25,10,07,269,39,15,07,184,42*76
$GLGSV,3,1,10,76,66,292,49,84,34,034,42,67,33,322,48,66,33,257,49*6A
$GLGSV,3,2,10,85,44,111,50,75,64,084,51,77,06,279,37,68,02,007,*61
$GLGSV,3,3,10,74,09,094,43,86,07,158,37*65
$GAGSV,2,1,07,30,79,107,50,07,22,217,43,19,21,325,39,02,26,088,44*65
$GAGSV,2,2,07,14,46,129,49,27,45,262,46,11,10,014,38*50
$BDGSV,1,1,02,24,61,270,52,05,11,128,35*61
$GPGGA,080027.00,5939.93188,N,01046.67783,E,2,29,0.5,103.44,M,40.68,M,2.9,0123*42
$GPGSV,3,1,12,24,67,157,52,25,24,245,45,06,13,101,40,14,17,322,39*72
$GPGSV,3,2,12,17,33,051,47,32,30,309,45,19,46,073,48,12,62,230,51*73
$GPGSV,3,3,12,22,06,005,30,01,05,358,26,10,07,269,39,15,07,184,41*7E
$GLGSV,3,1,10,76,66,292,49,84,34,034,42,67,33,322,48,66,33,257,49*6A
$GLGSV,3,2,10,85,44,111,50,75,64,084,51,77,06,279,37,68,02,007,*61
$GLGSV,3,3,10,74,09,094,44,86,07,158,37*62
$GAGSV,2,1,07,30,79,107,50,07,22,217,43,19,21,325,39,02,26,088,43*62
$GAGSV,2,2,07,14,46,129,49,27,45,262,46,11,10,014,38*50
$BDGSV,1,1,02,24,61,270,52,05,11,128,36*62
$GPGGA,080028.00,5939.93188,N,01046.67782,E,2,29,0.5,103.43,M,40.68,M,2.3,0123*41
$GPGSV,3,1,12,24,67,157,52,25,24,245,45,06,13,101,40,14,17,322,40*7C
$GPGSV,3,2,12,17,33,051,46,32,31,309,45,19,46,073,48,12,62,230,51*73
$GPGSV,3,3,12,22,06,005,28,01,05,358,28,10,07,269,39,15,07,184,42*7A
$GLGSV,3,1,10,76,66,292,49,84,34,034,42,67,33,322,48,66,33,257,49*6A
$GLGSV,3,2,10,85,44,111,49,75,64,084,51,77,06,279,37,68,02,007,*69
$GLGSV,3,3,10,74,09,094,43,86,07,158,37*65
$GAGSV,2,1,07,30,79,107,50,07,22,217,44,19,21,325,39,02,26,088,43*65
$GAGSV,2,2,07,14,46,129,49,27,45,262,46,11,10,014,38*50
$BDGSV,1,1,02,24,61,270,52,05,11,128,35*61
$GPGGA,080029.00,5939.93188,N,01046.67782,E,2,29,0.5,103.43,M,40.68,M,2.9,0123*4A
$GPGSV,3,1,12,24,67,157,52,25,24,245,45,06,13,101,40,14,17,322,40*7C
$GPGSV,3,2,12,17,33,051,46,32,31,309,45,19,46,073,48,12,62,230,51*73
$GPGSV,3,3,12,22,06,005,29,01,05,358,28,10,07,269,39,15,07,184,42*7B
$GLGSV,3,1,10,76,66,292,49,84,34,034,42,67,33,322,48,66,33,257,49*6A
$GLGSV,3,2,10,85,44,111,49,75,64,084,51,77,06,279,37,68,02,007,*69
$GLGSV,3,3,10,74,09,094,43,86,07,158,37*65
$GAGSV,2,1,07,30,79,107,50,07,22,217,43,19,21,325,39,02,26,088,43*62
$GAGSV,2,2,07,14,46,129,49,27,45,262,46,11,10,014,38*50
$BDGSV,1,1,02,24,61,270,52,05,11,128,36*62
$GPGGA,080030.00,5939.93188,N,01046.67783,E,2,29,0.5,103.44,M,40.68,M,1.9,0123*47
$GPGSV,3,1,12,24,67,157,52,25,24,245,45,06,13,101,40,14,17,322,40*7C
$GPGSV,3,2,12,17,33,051,46,32,31,309,45,19,46,073,48,12,62,230,51*73
$GPGSV,3,3,12,22,06,005,26,01,05,358,26,10,07,269,39,15,07,184,41*79
$GLGSV,3,1,10,76,66,292,49,84,34,034,42,67,33,322,48,66,33,257,49*6A
$GLGSV,3,2,10,85,44,111,49,75,64,084,51,77,06,279,37,68,02,007,*69
$GLGSV,3,3,10,74,09,094,44,86,07,158,37*62
$GAGSV,2,1,07,30,79,107,50,07,22,217,43,19,21,325,39,02,26,088,43*62
$GAGSV,2,2,07,14,46,129,49,27,45,262,46,11,10,014,38*50
$BDGSV,1,1,02,24,61,270,52,05,11,128,36*62
$GPGGA,080031.00,5939.93191,N,01046.67781,E,2,29,0.5,103.43,M,40.68,M,2.9,0123*48
$GPGSV,3,1,12,24,66,157,52,25,24,245,45,06,13,101,40,14,17,322,40*7D
$GPGSV,3,2,12,17,33,051,46,32,31,309,46,19,46,073,48,12,62,230,51*70
$GPGSV,3,3,12,22,06,004,28,01,05,358,25,10,07,269,40,15,07,184,41*7B
$GLGSV,3,1,10,76,66,292,49,84,34,034,42,67,33,322,48,66,33,257,49*6A
$GLGSV,3,2,10,85,44,111,49,75,64,084,51,77,06,279,37,68,02,007,*69
$GLGSV,3,3,10,74,09,094,44,86,07,158,37*62
$GAGSV,2,1,07,30,79,107,50,07,22,217,43,19,21,325,39,02,26,088,44*65
$GAGSV,2,2,07,14,46,129,50,27,45,262,46,11,10,014,38*58
$BDGSV,1,1,02,24,61,270,52,05,11,128,35*61
$GPGGA,080032.00,5939.93190,N,01046.67783,E,2,29,0.5,103.40,M,40.68,M,2.3,0123*41
$GPGSV,3,1,12,24,66,157,52,25,24,245,45,06,13,101,41,14,17,322,40*7C
$GPGSV,3,2,12,17,33,051,46,32,31,309,46,19,46,073,48,12,62,230,51*70
$GPGSV,3,3,12,22,06,004,28,01,05,358,26,10,07,269,40,15,07,184,41*78
$GLGSV,3,1,10,76,66,292,50,84,34,034,42,67,33,322,48,66,33,257,49*62
$GLGSV,3,2,10,85,44,111,49,75,64,084,51,77,06,279,37,68,02,007,*69
$GLGSV,3,3,10,74,09,094,44,86,07,158,37*62
$GAGSV,2,1,07,30,79,107,50,07,22,217,43,19,21,325,39,02,26,088,43*62
$GAGSV,2,2,07,14,46,129,50,27,45,262,46,11,10,014,37*57
$BDGSV,1,1,02,24,61,270,52,05,11,128,36*62
$GPGGA,080033.00,5939.93190,N,01046.67783,E,2,29,0.5,103.39,M,40.68,M,3.4,0123*48
$GPGSV,3,1,12,24,66,157,52,25,24,245,44,06,13,101,41,14,17,322,40*7D
$GPGSV,3,2,12,17,33,051,46,32,31,309,46,19,46,073,48,12,62,230,51*70
$GPGSV,3,3,12,22,06,004,27,01,05,358,26,10,07,269,41,15,07,184,41*76
$GLGSV,3,1,10,76,66,292,50,84,34,034,42,67,33,322,48,66,33,257,49*62
$GLGSV,3,2,10,85,44,111,49,75,64,084,51,77,06,279,37,68,02,007,*69
$GLGSV,3,3,10,74,09,094,44,86,07,158,37*62
$GAGSV,2,1,07,30,79,107,50,07,22,217,43,19,21,325,39,02,26,088,44*65
$GAGSV,2,2,07,14,46,129,50,27,45,262,46,11,10,014,37*57
$BDGSV,1,1,02,24,61,270,52,05,11,128,35*61
$GPGGA,080034.00,5939.93191,N,01046.67781,E,2,29,0.5,103.38,M,40.68,M,4.4,0123*4A
$GPGSV,3,1,12,24,66,157,52,25,24,245,44,06,13,101,40,14,17,322,40*7C
$GPGSV,3,2,12,17,33,051,46,32,31,309,46,19,46,073,48,12,62,230,51*70
$GPGSV,3,3,12,22,06,004,28,01,05,358,27,10,07,269,41,15,07,184,41*78
$GLGSV,3,1,10,76,66,292,50,84,34,034,42,67,33,322,48,66,33,257,49*62
$GLGSV,3,2,10,85,44,111,48,75,64,084,51,77,06,279,38,68,02,007,*67
$GLGSV,3,3,10,74,09,094,44,86,07,158,37*62
$GAGSV,2,1,07,30,79,107,50,07,22,217,43,19,21,325,39,02,26,088,44*65
$GAGSV,2,2,07,14,46,129,50,27,45,262,46,11,10,014,37*57
$BDGSV,1,1,02,24,61,270,52,05,11,128,36*62
$GPGGA,080035.00,5939.93190,N,01046.67778,E,2,29,0.5,103.37,M,40.68,M,5.4,0123*42
$GPGSV,3,1,12,24,66,157,52,25,24,245,45,06,13,101,41,14,17,322,40*7C
$GPGSV,3,2,12,17,33,051,46,32,31,309,46,19,46,073,48,12,62,230,51*70
$GPGSV,3,3,12,22,06,004,28,01,05,358,27,10,07,269,40,15,07,184,41*79
$GLGSV,3,1,10,76,66,292,50,84,34,034,42,67,33,322,47,66,33,257,49*6D
$GLGSV,3,2,10,85,44,111,48,75,64,084,51,77,06,279,37,68,02,007,*68
$GLGSV,3,3,10,74,09,094,44,86,07,158,37*62
$GAGSV,2,1,07,30,79,107,50,07,22,217,43,19,21,325,39,02,26,088,44*65
$GAGSV,2,2,07,14,46,129,50,27,45,262,46,11,10,014,38*58
$BDGSV,1,1,02,24,61,270,52,05,11,128,36*62
$GPGGA,080036.00,5939.93191,N,01046.67776,E,2,29,0.5,103.37,M,40.68,M,6.4,0123*4D
$GPGSV,3,1,12,24,66,157,52,25,24,245,45,06,13,101,41,14,17,322,40*7C
$GPGSV,3,2,12,17,33,051,47,32,31,309,46,19,46,073,48,12,62,230,51*71
$GPGSV,3,3,12,22,06,004,28,01,05,358,26,10,07,269,40,15,07,184,41*78
$GLGSV,3,1,10,76,66,292,50,84,34,034,42,67,33,322,47,66,33,257,48*6C
$GLGSV,3,2,10,85,44,111,48,75,64,084,51,77,06,279,37,68,02,007,*68
$GLGSV,3,3,10,74,09,094,44,86,07,158,37*62
$GAGSV,2,1,07,30,79,107,50,07,22,217,43,19,21,325,39,02,26,088,43*62
$GAGSV,2,2,07,14,46,129,50,27,45,262,46,11,10,014,38*58
$BDGSV,1,1,02,24,61,270,52,05,11,128,35*61
$GPGGA,080037.00,5939.93192,N,01046.67776,E,2,29,0.5,103.37,M,40.68,M,6.6,0123*4D
$GPGSV,3,1,12,24,66,157,52,25,24,245,45,06,13,101,41,14,17,322,40*7C
$GPGSV,3,2,12,17,33,051,47,32,31,309,46,19,46,073,48,12,62,230,51*71
$GPGSV,3,3,12,22,06,004,27,01,05,358,25,10,07,269,40,15,07,184,42*77
$GLGSV,3,1,10,76,66,292,50,84,34,034,42,67,33,322,47,66,33,257,48*6C
$GLGSV,3,2,10,85,44,111,48,75,64,084,51,77,06,279,37,68,02,007,*68
$GLGSV,3,3,10,74,09,094,44,86,07,158,37*62
$GAGSV,2,1,07,30,79,107,50,07,22,217,43,19,21,325,39,02,26,088,44*65
$GAGSV,2,2,07,14,46,129,50,27,45,262,46,11,10,014,37*57
$BDGSV,1,1,02,24,61,270,52,05,11,128,36*62
$GPGGA,080038.00,5939.93191,N,01046.67777,E,2,29,0.5,103.36,M,40.68,M,3.1,0123*43
$GPGSV,3,1,12,24,66,157,52,25,24,245,45,06,13,101,41,14,17,322,40*7C
$GPGSV,3,2,12,17,33,051,46,32,31,309,46,19,46,073,48,12,62,230,51*70
$GPGSV,3,3,12,22,06,004,25,01,05,358,23,10,07,269,40,15,07,184,42*73
$GLGSV,3,1,10,76,66,292,50,84,34,034,42,67,33,322,48,66,33,257,49*62
$GLGSV,3,2,10,85,44,111,48,75,64,084,51,77,06,279,37,68,02,007,*68
$GLGSV,3,3,10,74,09,094,45,86,07,158,38*6C
$GAGSV,2,1,07,30,79,107,50,07,22,217,43,19,21,325,39,02,26,088,44*65
$GAGSV,2,2,07,14,46,129,50,27,45,262,46,11,10,014,38*58
$BDGSV,1,1,02,24,61,270,52,05,11,128,35*61
$GPGGA,080039.00,5939.93192,N,01046.67776,E,2,29,0.5,103.35,M,40.68,M,1.8,0123*48
$GPGSV,3,1,12,24,66,157,52,25,24,245,45,06,13,101,41,14,17,322,40*7C
$GPGSV,3,2,12,17,33,051,46,32,31,309,46,19,46,073,48,12,62,230,51*70
$GPGSV,3,3,12,22,06,004,24,01,05,358,25,10,07,269,40,15,07,184,42*74
$GLGSV,3,1,10,76,66,292,50,84,34,034,42,67,33,322,48,66,33,257,49*62
$GLGSV,3,2,10,85,44,111,48,75,64,084,51,77,06,279,37,68,02,007,*68
$GLGSV,3,3,10,74,09,094,45,86,07,158,37*63
$GAGSV,2,1,07,30,79,107,50,07,22,217,43,19,21,325,39,02,26,088,43*62
$GAGSV,2,2,07,14,46,129,50,27,45,262,46,11,10,014,38*58
$BDGSV,1,1,02,24,61,270,52,05,11,128,35*61
$GPGGA,080040.00,5939.93192,N,01046.67776,E,2,29,0.5,103.35,M,40.68,M,2.8,0123*45
$GPGSV,3,1,12,24,66,157,52,25,24,245,44,06,13,101,41,14,17,321,40*7E
$GPGSV,3,2,12,17,33,051,46,32,31,309,46,19,46,073,48,12,62,230,51*70
$GPGSV,3,3,12,22,06,004,28,01,05,358,25,10,07,269,40,15,07,184,42*78
$GLGSV,3,1,10,76,66,292,50,84,34,034,43,67,33,322,48,66,33,257,49*63
$GLGSV,3,2,10,85,44,111,48,75,64,084,51,77,06,279,37,68,02,007,*68
$GLGSV,3,3,10,74,09,094,44,86,07,158,37*62
$GAGSV,2,1,07,30,79,107,50,07,22,217,43,19,21,325,39,02,26,088,43*62
$GAGSV,2,2,07,14,46,129,50,27,45,262,46,11,10,014,37*57
$BDGSV,1,1,02,24,61,270,52,05,11,128,35*61
$GPGGA,080041.00,5939.93192,N,01046.67776,E,2,29,0.5,103.35,M,40.68,M,3.8,0123*45
$GPGSV,3,1,12,24,66,157,52,25,24,245,45,06,13,101,41,14,17,321,40*7F
$GPGSV,3,2,12,17,33,051,46,32,31,309,46,19,46,073,48,12,62,230,51*70
$GPGSV,3,3,12,22,06,004,27,01,05,358,25,10,07,269,40,15,07,184,42*77
$GLGSV,3,1,10,76,66,292,49,84,34,034,43,67,33,322,48,66,33,257,49*6B
$GLGSV,3,2,10,85,44,111,48,75,64,084,51,77,06,279,37,68,02,007,*68
$GLGSV,3,3,10,74,09,094,44,86,07,158,37*62
$GAGSV,2,1,07,30,79,107,50,07,22,217,43,19,21,325,39,02,26,088,43*62
$GAGSV,2,2,07,14,46,129,50,27,45,262,46,11,10,014,37*57
$BDGSV,1,1,02,24,61,270,52,05,11,128,35*61
$GPGGA,080042.00,5939.93191,N,01046.67777,E,2,29,0.5,103.37,M,40.68,M,4.2,0123*4B
$GPGSV,3,1,12,24,66,157,52,25,24,245,45,06,13,101,40,14,17,321,40*7E
$GPGSV,3,2,12,17,33,051,46,32,31,309,46,19,46,073,48,12,62,230,51*70
$GPGSV,3,3,12,22,06,004,29,01,05,358,24,10,07,269,40,15,07,184,42*78
$GLGSV,3,1,10,76,66,292,49,84,34,034,42,67,33,322,48,66,33,257,49*6A
$GLGSV,3,2,10,85,44,111,48,75,64,084,51,77,06,279,37,68,02,007,*68
$GLGSV,3,3,10,74,09,094,44,86,07,158,37*62
$GAGSV,2,1,07,30,79,107,50,07,22,217,43,19,21,325,39,02,26,088,43*62
$GAGSV,2,2,07,14,46,129,50,27,45,262,46,11,10,014,38*58
$BDGSV,1,1,02,24,61,270,52,05,11,128,35*61
$GPGGA,080043.00,5939.93191,N,01046.67777,E,2,29,0.5,103.36,M,40.68,M,2.4,0123*4B
$GPGSV,3,1,12,24,66,157,52,25,24,245,45,06,13,101,40,14,17,321,39*70
$GPGSV,3,2,12,17,33,051,46,32,31,309,46,19,46,073,48,12,62,230,51*70
$GPGSV,3,3,12,22,06,004,27,01,05,358,25,10,07,269,40,15,07,184,42*77
$GLGSV,3,1,10,76,66,292,49,84,34,034,42,67,33,322,48,66,33,257,49*6A
$GLGSV,3,2,10,85,44,111,49,75,64,084,51,77,06,279,37,68,02,007,*69
$GLGSV,3,3,10,74,09,094,44,86,07,158,38*6D
$GAGSV,2,1,07,30,79,107,50,07,22,217,43,19,21,325,39,02,26,088,43*62
$GAGSV,2,2,07,14,46,129,50,27,45,262,46,11,10,014,37*57
$BDGSV,1,1,02,24,61,270,52,05,11,128,35*61
$GPGGA,080044.00,5939.93191,N,01046.67778,E,2,29,0.5,103.36,M,40.68,M,1.8,0123*4C
$GPGSV,3,1,12,24,66,157,52,25,24,245,45,06,13,101,40,14,17,321,39*70
$GPGSV,3,2,12,17,33,051,46,32,31,309,46,19,46,073,48,12,62,230,51*70
$GPGSV,3,3,12,22,06,004,26,01,05,358,25,10,07,269,40,15,07,184,42*76
$GLGSV,3,1,10,76,66,292,49,84,34,034,42,67,33,322,48,66,33,257,49*6A
$GLGSV,3,2,10,85,44,111,49,75,64,084,51,77,06,279,37,68,02,007,*69
$GLGSV,3,3,10,74,09,094,44,86,07,158,37*62
$GAGSV,2,1,07,30,79,107,50,07,22,217,43,19,21,325,39,02,26,088,43*62
$GAGSV,2,2,07,14,46,129,49,27,45,262,46,11,10,014,38*50
$BDGSV,1,1,02,24,61,270,52,05,11,128,35*61
$GPGGA,080045.00,5939.93191,N,01046.67778,E,2,29,0.5,103.35,M,40.68,M,2.8,0123*4D
$GPGSV,3,1,12,24,66,157,52,25,24,245,44,06,13,101,40,14,17,321,39*71
$GPGSV,3,2,12,17,33,051,47,32,31,309,46,19,46,073,48,12,62,230,51*71
$GPGSV,3,3,12,22,06,004,26,01,05,358,24,10,07,269,40,15,07,184,42*77
$GLGSV,3,1,10,76,66,292,49,84,34,034,42,67,33,322,48,66,33,257,49*6A
$GLGSV,3,2,10,85,44,111,49,75,64,084,51,77,06,279,37,68,02,007,*69
$GLGSV,3,3,10,74,09,094,45,86,07,158,38*6C
$GAGSV,2,1,07,30,79,107,50,07,22,217,43,19,21,325,39,02,26,088,43*62
$GAGSV,2,2,07,14,46,129,49,27,45,262,46,11,10,014,38*50
$BDGSV,1,1,02,24,61,270,52,05,11,128,35*61
$GPGGA,080046.00,5939.93191,N,01046.67778,E,2,29,0.5,103.33,M,40.68,M,3.3,0123*42
$GPGSV,3,1,12,24,66,157,52,25,24,245,45,06,13,101,40,14,17,321,39*70
$GPGSV,3,2,12,17,33,051,47,32,31,309,46,19,46,073,48,12,62,230,51*71
$GPGSV,3,3,12,22,06,004,27,01,05,358,26,10,07,269,40,15,07,184,42*74
$GLGSV,3,1,10,76,66,292,49,84,34,034,42,67,33,322,48,66,33,257,49*6A
$GLGSV,3,2,10,85,44,111,49,75,63,084,51,77,06,279,37,68,02,007,*6E
$GLGSV,3,3,10,74,09,094,45,86,07,158,38*6C
$GAGSV,2,1,07,30,79,107,50,07,22,217,43,19,21,325,39,02,26,088,43*62
$GAGSV,2,2,07,14,46,129,49,27,45,262,46,11,10,014,37*5F
$BDGSV,1,1,02,24,61,270,52,05,11,128,35*61
$GPGGA,080047.00,5939.93191,N,01046.67778,E,2,29,0.5,103.32,M,40.68,M,2.1,0123*41
$GPGSV,3,1,12,24,66,157,52,25,24,245,44,06,13,101,40,14,17,321,38*70
$GPGSV,3,2,12,17,33,051,47,32,31,309,46,19,46,073,48,12,62,230,51*71
$GPGSV,3,3,12,22,06,004,27,01,05,358,27,10,07,269,40,15,07,184,42*75
$GLGSV,3,1,10,76,66,292,49,84,34,034,42,67,33,322,48,66,33,257,49*6A
$GLGSV,3,2,10,85,44,111,49,75,63,084,51,77,06,279,37,68,02,007,*6E
$GLGSV,3,3,10,74,09,094,45,86,07,158,38*6C
$GAGSV,2,1,07,30,79,107,50,07,22,217,43,19,21,325,39,02,26,088,43*62
$GAGSV,2,2,07,14,46,129,49,27,45,262,46,11,10,014,37*5F
$BDGSV,1,1,02,24,61,270,51,05,11,128,36*61
$GPGGA,080048.00,5939.93190,N,01046.67778,E,2,29,0.5,103.30,M,40.68,M,3.1,0123*4C
$GPGSV,3,1,12,24,66,157,52,25,24,245,45,06,13,101,40,14,17,321,38*71
$GPGSV,3,2,12,17,33,051,47,32,31,309,46,19,46,073,48,12,62,230,51*71
$GPGSV,3,3,12,22,06,004,28,01,05,358,27,10,07,269,40,15,07,184,42*7A
$GLGSV,3,1,10,76,66,292,49,84,34,034,42,67,33,322,48,66,33,257,49*6A
$GLGSV,3,2,10,85,44,111,49,75,63,084,51,77,06,279,37,68,02,007,*6E
$GLGSV,3,3,10,74,09,094,45,86,07,158,38*6C
$GAGSV,2,1,07,30,79,107,50,07,22,217,43,19,21,325,39,02,26,088,43*62
$GAGSV,2,2,07,14,46,129,49,27,45,262,46,11,10,014,37*5F
$BDGSV,1,1,02,24,61,270,52,05,11,128,35*61
$GPGGA,080049.00,5939.93190,N,01046.67777,E,2,29,0.5,103.28,M,40.68,M,2.4,0123*4F
$GPGSV,3,1,12,24,66,157,52,25,24,245,45,06,13,101,40,14,17,321,38*71
$GPGSV,3,2,12,17,33,051,47,32,31,309,46,19,46,073,48,12,62,230,51*71
$GPGSV,3,3,12,22,06,004,29,01,05,358,27,10,07,269,40,15,07,184,41*78
$GLGSV,3,1,10,76,66,292,49,84,34,034,42,67,33,322,48,66,33,257,49*6A
$GLGSV,3,2,10,85,44,111,49,75,63,084,51,77,06,279,37,68,02,007,*6E
$GLGSV,3,3,10,74,09,094,45,86,08,158,38*63
$GAGSV,2,1,07,30,79,107,50,07,22,217,43,19,21,325,39,02,26,088,43*62
$GAGSV,2,2,07,14,46,129,49,27,45,262,46,11,10,014,37*5F
$BDGSV,1,1,02,24,61,270,52,05,11,128,36*62
$GPGGA,080050.00,5939.93190,N,01046.67777,E,2,29,0.5,103.28,M,40.68,M,3.0,0123*42
$GPGSV,3,1,12,24,66,157,52,25,24,245,45,06,13,101,40,14,17,321,38*71
$GPGSV,3,2,12,17,33,051,47,32,31,309,46,19,46,073,48,12,62,230,51*71
$GPGSV,3,3,12,22,06,004,29,01,05,358,27,10,07,269,40,15,07,184,42*7B
$GLGSV,3,1,10,76,66,292,49,84,34,034,42,67,33,322,47,66,33,257,49*65
$GLGSV,3,2,10,85,44,111,49,75,63,084,51,77,06,279,37,68,02,007,*6E
$GLGSV,3,3,10,74,09,094,45,86,08,158,38*63
$GAGSV,2,1,07,30,79,107,50,07,22,217,43,19,21,325,39,02,26,088,43*62
$GAGSV,2,2,07,14,46,129,50,27,45,262,46,11,10,014,37*57
$BDGSV,1,1,02,24,61,270,52,05,11,128,35*61
$GPGGA,080051.00,5939.93190,N,01046.67776,E,2,29,0.5,103.28,M,40.68,M,1.8,0123*48
$GPGSV,3,1,12,24,66,157,52,25,24,245,45,06,13,101,40,14,17,321,38*71
$GPGSV,3,2,12,17,33,051,47,32,31,309,45,19,46,073,48,12,62,230,51*72
$GPGSV,3,3,12,22,06,004,31,01,05,358,27,10,07,269,40,15,07,184,42*72
$GLGSV,3,1,10,76,66,292,49,84,34,034,42,67,33,322,48,66,33,257,49*6A
$GLGSV,3,2,10,85,44,111,48,75,63,084,51,77,06,279,37,68,02,007,*6F
$GLGSV,3,3,10,74,09,094,45,86,08,158,38*63
$GAGSV,2,1,07,30,79,107,50,07,22,217,43,19,21,325,39,02,26,088,43*62
$GAGSV,2,2,07,14,46,129,49,27,45,262,46,11,10,014,38*50
$BDGSV,1,1,02,24,61,270,52,05,11,128,35*61
$GPGGA,080052.00,5939.93189,N,01046.67776,E,2,29,0.5,103.28,M,40.68,M,2.8,0123*40
$GPGSV,3,1,12,24,66,157,52,25,24,245,45,06,13,101,41,14,17,321,38*70
$GPGSV,3,2,12,17,33,051,47,32,31,309,45,19,46,073,48,12,62,230,51*72
$GPGSV,3,3,12,22,06,004,32,01,05,358,26,10,07,269,40,15,07,184,42*70
$GLGSV,3,1,10,76,66,292,49,84,34,034,42,67,33,322,48,66,33,257,49*6A
$GLGSV,3,2,10,85,44,111,48,75,63,084,51,77,06,279,37,68,02,007,*6F
$GLGSV,3,3,10,74,09,094,45,86,08,158,38*63
$GAGSV,2,1,07,30,79,107,50,07,22,217,43,19,21,325,39,02,26,088,44*65
$GAGSV,2,2,07,14,46,129,50,27,45,262,46,11,10,014,38*58
$BDGSV,1,1,02,24,61,270,52,05,11,128,35*61
$GPGGA,080053.00,5939.93190,N,01046.67776,E,2,29,0.5,103.28,M,40.68,M,2.4,0123*45
$GPGSV,3,1,12,24,66,157,52,25,24,245,45,06,13,101,40,14,17,321,38*71
$GPGSV,3,2,12,17,33,051,47,32,31,309,45,19,46,073,48,12,62,230,51*72
$GPGSV,3,3,12,22,06,004,32,01,05,358,27,10,07,269,40,15,07,184,41*72
$GLGSV,3,1,10,76,66,292,49,84,34,034,42,67,33,322,48,66,33,257,49*6A
$GLGSV,3,2,10,85,44,111,49,75,63,084,51,77,06,279,37,68,02,007,*6E
$GLGSV,3,3,10,74,09,094,45,86,08,158,38*63
$GAGSV,2,1,07,30,79,107,50,07,22,217,43,19,21,325,39,02,26,088,44*65
$GAGSV,2,2,07,14,46,129,50,27,45,262,46,11,10,014,37*57
$BDGSV,1,1,02,24,61,270,52,05,11,128,35*61
$GPGGA,080054.00,5939.93190,N,01046.67777,E,2,29,0.5,103.28,M,40.68,M,3.0,0123*46
$GPGSV,3,1,12,24,66,157,52,25,24,245,45,06,13,101,40,14,17,321,38*71
$GPGSV,3,2,12,17,33,051,47,32,31,309,45,19,46,073,48,12,62,230,51*72
$GPGSV,3,3,12,22,06,004,31,01,05,358,26,10,07,269,40,15,07,184,41*70
$GLGSV,3,1,10,76,66,292,49,84,34,034,42,67,33,322,47,66,33,257,49*65
$GLGSV,3,2,10,85,44,111,49,75,63,084,51,77,06,279,37,68,02,007,*6E
$GLGSV,3,3,10,74,09,094,45,86,08,158,38*63
$GAGSV,2,1,07,30,79,107,50,07,22,217,43,19,21,325,39,02,26,088,43*62
$GAGSV,2,2,07,14,46,129,50,27,45,262,46,11,10,014,38*58
$BDGSV,1,1,02,24,61,270,52,05,11,128,35*61
$GPGGA,080055.00,5939.93190,N,01046.67777,E,2,29,0.5,103.27,M,40.68,M,1.8,0123*42
$GPGSV,3,1,12,24,66,157,52,25,24,245,45,06,13,101,40,14,17,321,38*71
$GPGSV,3,2,12,17,33,051,47,32,31,309,46,19,46,073,48,12,62,230,51*71
$GPGSV,3,3,12,22,06,004,31,01,05,358,28,10,07,269,41,15,07,184,41*7F
$GLGSV,3,1,10,76,66,292,50,84,34,034,42,67,33,322,47,66,33,257,49*6D
$GLGSV,3,2,10,85,44,110,49,75,63,084,51,77,06,279,37,68,02,007,*6F
$GLGSV,3,3,10,74,09,094,45,86,08,158,37*6C
$GAGSV,2,1,07,30,79,107,50,07,22,217,43,19,21,325,39,02,26,088,43*62
$GAGSV,2,2,07,14,46,129,50,27,45,262,46,11,10,014,37*57
$BDGSV,1,1,02,24,61,270,52,05,11,128,35*61
$GPGGA,080056.00,5939.93191,N,01046.67777,E,2,29,0.5,103.26,M,40.68,M,2.8,0123*42
$GPGSV,3,1,12,24,66,157,52,25,24,245,45,06,13,101,40,14,17,321,38*71
$GPGSV,3,2,12,17,33,051,47,32,31,309,45,19,46,073,48,12,62,230,51*72
$GPGSV,3,3,12,22,06,004,32,01,05,358,28,10,07,269,40,15,07,184,41*7D
$GLGSV,3,1,10,76,66,292,50,84,34,034,42,67,33,322,47,66,33,257,49*6D
$GLGSV,3,2,10,85,44,110,49,75,63,084,51,77,06,279,37,68,02,007,*6F
$GLGSV,3,3,10,74,09,094,45,86,08,158,37*6C
$GAGSV,2,1,07,30,79,107,50,07,22,217,43,19,21,325,39,02,26,088,44*65
$GAGSV,2,2,07,14,46,129,50,27,45,262,46,11,10,014,37*57
$BDGSV,1,1,02,24,61,270,52,05,11,128,35*61
$GPGGA,080057.00,5939.93191,N,01046.67777,E,2,29,0.5,103.25,M,40.68,M,2.4,0123*4C
$GPGSV,3,1,12,24,66,157,52,25,24,245,45,06,13,101,40,14,17,321,39*70
$GPGSV,3,2,12,17,33,051,47,32,31,309,45,19,46,073,48,12,62,230,52*71
$GPGSV,3,3,12,22,06,004,32,01,05,358,28,10,07,269,40,15,07,184,41*7D
$GLGSV,3,1,10,76,66,292,50,84,34,034,43,67,33,322,47,66,33,257,49*6C
$GLGSV,3,2,10,85,44,110,49,75,63,084,51,77,06,279,37,68,02,007,*6F
$GLGSV,3,3,10,74,09,094,45,86,08,158,38*63
$GAGSV,2,1,07,30,79,107,50,07,22,217,43,19,21,325,39,02,26,088,43*62
$GAGSV,2,2,07,14,46,129,50,27,45,262,46,11,10,014,37*57
$BDGSV,1,1,02,24,61,270,52,05,11,128,36*62
$GPGGA,080058.00,5939.93191,N,01046.67778,E,2,29,0.5,103.25,M,40.68,M,3.0,0123*49
$GPGSV,3,1,12,24,66,157,52,25,24,245,45,06,13,101,40,14,17,321,39*70
$GPGSV,3,2,12,17,33,051,46,32,31,309,45,19,46,073,48,12,62,230,51*73
$GPGSV,3,3,12,22,06,004,32,01,05,358,28,10,07,269,40,15,07,184,41*7D
$GLGSV,3,1,10,76,66,292,49,84,34,034,43,67,33,322,47,66,33,257,48*65
$GLGSV,3,2,10,85,44,110,49,75,63,084,51,77,06,279,37,68,02,007,*6F
$GLGSV,3,3,10,74,09,094,45,86,08,158,37*6C
$GAGSV,2,1,07,30,79,107,50,07,22,217,43,19,21,325,39,02,26,088,43*62
$GAGSV,2,2,07,14,46,129,50,27,45,262,46,11,10,014,38*58
$BDGSV,1,1,02,24,61,270,52,05,11,128,35*61
$GPGGA,080059.00,5939.93191,N,01046.67778,E,2,29,0.5,103.25,M,40.68,M,4.0,0123*4F
$GPGSV,3,1,12,24,66,157,52,25,24,245,45,06,13,101,40,14,17,321,39*70
$GPGSV,3,2,12,17,33,051,47,32,31,309,45,19,46,073,48,12,62,230,52*71
$GPGSV,3,3,12,22,06,004,33,01,05,358,27,10,07,269,40,15,07,184,42*70
$GLGSV,3,1,10,76,66,292,50,84,34,034,42,67,33,322,47,66,33,257,48*6C
$GLGSV,3,2,10,85,44,110,49,75,63,084,51,77,06,279,37,68,02,007,*6F
$GLGSV,3,3,10,74,09,094,45,86,08,158,37*6C
$GAGSV,2,1,07,30,79,107,50,07,22,217,43,19,21,325,39,02,26,088,44*65
$GAGSV,2,2,07,14,46,129,50,27,45,262,46,11,10,014,38*58
$BDGSV,1,1,02,24,61,270,52,05,11,128,35*61
$GPGGA,080100.00,5939.93191,N,01046.67779,E,2,29,0.5,103.23,M,40.68,M,2.2,0123*41
$GPGSV,3,1,12,24,66,157,52,25,24,245,45,06,13,101,39,14,17,321,39*7E
$GPGSV,3,2,12,17,33,051,46,32,31,309,46,19,46,073,48,12,62,230,52*73
$GPGSV,3,3,12,22,06,004,32,01,05,358,27,10,07,269,40,15,07,184,42*71
$GLGSV,3,1,10,76,66,292,50,84,34,034,43,67,33,322,47,66,33,257,48*6D
$GLGSV,3,2,10,85,44,110,49,75,63,084,51,77,06,279,37,68,02,007,*6F
$GLGSV,3,3,10,74,09,094,45,86,08,158,37*6C
$GAGSV,2,1,07,30,79,107,50,07,22,217,43,19,21,325,40,02,26,088,44*6B
$GAGSV,2,2,07,14,46,129,50,27,45,262,46,11,10,014,38*58
$BDGSV,1,1,02,24,61,270,52,05,11,128,35*61
$GPGGA,080101.00,5939.93191,N,01046.67778,E,2,29,0.5,103.22,M,40.68,M,1.9,0123*48
$GPGSV,3,1,12,24,66,157,52,25,24,245,45,06,13,101,39,14,17,321,40*70
$GPGSV,3,2,12,17,33,051,46,32,31,309,46,19,46,073,48,12,62,230,51*70
$GPGSV,3,3,12,22,06,004,32,01,05,358,28,10,07,269,40,15,07,184,42*7E
$GLGSV,3,1,10,76,66,292,49,84,34,034,43,67,33,322,47,66,33,257,49*64
$GLGSV,3,2,10,85,44,110,49,75,63,084,51,77,06,279,37,68,02,007,*6F
$GLGSV,3,3,10,74,09,094,45,86,08,158,37*6C
$GAGSV,2,1,07,30,79,107,50,07,22,217,43,19,21,325,40,02,26,088,44*6B
$GAGSV,2,2,07,14,46,128,50,27,45,262,46,11,10,014,38*59
$BDGSV,1,1,02,24,61,270,52,05,11,128,35*61
$GPGGA,080102.00,5939.93191,N,01046.67779,E,2,29,0.5,103.22,M,40.68,M,2.4,0123*44
$GPGSV,3,1,12,24,66,157,52,25,24,245,45,06,13,101,39,14,17,321,39*7E
$GPGSV,3,2,12,17,33,051,46,32,31,309,45,19,46,073,48,12,62,230,51*73
$GPGSV,3,3,12,22,06,004,33,01,05,358,28,10,07,269,40,15,07,184,43*7E
$GLGSV,3,1,10,76,66,292,49,84,34,034,42,67,33,322,47,66,33,257,49*65
$GLGSV,3,2,10,85,44,110,49,75,63,084,51,77,06,279,36,68,02,007,*6E
$GLGSV,3,3,10,74,09,094,45,86,08,158,37*6C
$GAGSV,2,1,07,30,79,107,50,07,22,217,43,19,21,325,40,02,26,088,44*6B
$GAGSV,2,2,07,14,46,128,50,27,45,262,46,11,10,014,38*59
$BDGSV,1,1,02,24,61,270,52,05,11,128,35*61
$GPGGA,080103.00,5939.93191,N,01046.67780,E,2,29,0.5,103.21,M,40.68,M,3.4,0123*41
$GPGSV,3,1,12,24,66,157,52,25,24,245,45,06,13,101,39,14,17,321,40*70
$GPGSV,3,2,12,17,33,051,46,32,31,309,45,19,46,073,48,12,62,230,51*73
$GPGSV,3,3,12,22,06,004,34,01,05,358,28,10,07,269,40,15,07,184,43*79
$GLGSV,3,1,10,76,66,292,50,84,34,034,42,67,33,322,47,66,33,257,49*6D
$GLGSV,3,2,10,85,44,110,49,75,63,084,51,77,06,279,37,68,02,007,*6F
$GLGSV,3,3,10,74,09,094,45,86,08,158,37*6C
$GAGSV,2,1,07,30,79,107,50,07,22,217,43,19,21,325,40,02,26,088,44*6B
$GAGSV,2,2,07,14,46,128,50,27,45,262,46,11,10,014,38*59
$BDGSV,1,1,02,24,61,270,52,05,11,128,35*61
$GPGGA,080104.00,5939.93191,N,01046.67781,E,2,29,0.5,103.21,M,40.68,M,2.2,0123*40
$GPGSV,3,1,12,24,66,157,52,25,24,245,46,06,13,101,40,14,17,321,40*7D
$GPGSV,3,2,12,17,33,051,46,32,31,309,45,19,46,073,48,12,62,230,51*73
$GPGSV,3,3,12,22,06,004,34,01,05,358,28,10,07,269,40,15,07,184,42*78
$GLGSV,3,1,10,76,66,292,50,84,34,034,42,67,33,322,47,66,33,257,49*6D
$GLGSV,3,2,10,85,44,110,49,75,63,084,51,77,06,279,37,68,02,007,*6F
$GLGSV,3,3,10,74,09,094,45,86,08,158,37*6C
$GAGSV,2,1,07,30,79,107,50,07,22,217,43,19,21,325,40,02,26,088,44*6B
$GAGSV,2,2,07,14,46,128,50,27,45,262,46,11,10,014,38*59
$BDGSV,1,1,02,24,61,270,52,05,11,128,35*61
$GPGGA,080105.00,5939.93191,N,01046.67782,E,2,29,0.5,103.20,M,40.68,M,1.9,0123*4B
$GPGSV,3,1,12,24,66,157,52,25,24,245,46,06,13,101,40,14,17,321,40*7D
$GPGSV,3,2,12,17,33,051,46,32,31,309,45,19,46,073,48,12,62,230,51*73
$GPGSV,3,3,12,22,06,004,34,01,05,358,28,10,07,269,40,15,07,184,42*78
$GLGSV,3,1,10,76,66,292,50,84,34,034,42,67,33,322,47,66,33,257,49*6D
$GLGSV,3,2,10,85,44,110,48,75,63,084,51,77,06,279,36,68,02,007,*6F
$GLGSV,3,3,10,74,09,094,45,86,08,158,37*6C
$GAGSV,2,1,07,30,79,107,50,07,22,217,43,19,21,325,39,02,26,088,44*65
$GAGSV,2,2,07,14,46,128,50,27,45,262,46,11,10,014,37*56
$BDGSV,1,1,02,24,61,270,52,05,11,128,35*61
$GPGGA,080106.00,5939.93192,N,01046.67782,E,2,29,0.5,103.20,M,40.68,M,2.4,0123*45
$GPGSV,3,1,12,24,66,157,52,25,24,245,45,06,13,101,40,14,17,321,40*7E
$GPGSV,3,2,12,17,33,051,46,32,31,309,45,19,46,073,48,12,62,230,51*73
$GPGSV,3,3,12,22,06,004,33,01,05,358,27,10,07,269,40,15,07,184,42*70
$GLGSV,3,1,10,76,66,292,50,84,34,034,42,67,33,322,48,66,33,257,49*62
$GLGSV,3,2,10,85,44,110,48,75,63,084,52,77,06,279,36,68,02,007,*6C
$GLGSV,3,3,10,74,09,094,45,86,08,158,37*6C
$GAGSV,2,1,07,30,79,107,50,07,22,217,43,19,21,325,40,02,26,088,44*6B
$GAGSV,2,2,07,14,46,128,49,27,45,262,46,11,10,014,37*5E
$BDGSV,1,1,02,24,61,270,52,05,11,128,36*62
$GPGGA,080107.00,5939.93192,N,01046.67783,E,2,29,0.5,103.21,M,40.68,M,3.4,0123*45
$GPGSV,3,1,12,24,66,157,52,25,24,245,45,06,13,101,40,14,17,321,41*7F
$GPGSV,3,2,12,17,33,051,46,32,31,309,45,19,46,073,48,12,62,230,51*73
$GPGSV,3,3,12,22,06,004,33,01,05,358,27,10,07,269,40,15,07,184,42*70
$GLGSV,3,1,10,76,66,292,50,84,34,034,42,67,33,321,48,66,33,257,48*60
$GLGSV,3,2,10,85,44,110,48,75,63,084,52,77,06,279,36,68,02,007,*6C
$GLGSV,3,3,10,74,09,094,46,86,08,158,38*60
$GAGSV,2,1,07,30,79,107,50,07,22,217,43,19,21,325,39,02,26,088,44*65
$GAGSV,2,2,07,14,46,128,49,27,45,262,46,11,10,014,37*5E
$BDGSV,1,1,02,24,61,270,52,05,11,128,35*61
$GPGGA,080108.00,5939.93192,N,01046.67783,E,2,29,0.5,103.20,M,40.68,M,2.2,0123*4C
$GPGSV,3,1,12,24,66,157,52,25,24,245,45,06,13,101,40,14,17,321,41*7F
$GPGSV,3,2,12,17,33,051,46,32,31,309,45,19,46,073,49,12,62,230,51*72
$GPGSV,3,3,12,22,06,004,34,01,05,358,27,10,07,269,40,15,07,184,42*77
$GLGSV,3,1,10,76,66,292,49,84,34,034,42,67,33,321,47,66,33,257,48*67
$GLGSV,3,2,10,85,44,110,48,75,63,084,52,77,06,279,36,68,02,007,*6C
$GLGSV,3,3,10,74,09,094,46,86,08,158,38*60
$GAGSV,2,1,07,30,79,107,50,07,22,217,43,19,21,325,39,02,26,088,44*65
$GAGSV,2,2,07,14,46,128,49,27,45,262,46,11,10,014,38*51
$BDGSV,1,1,02,24,61,270,52,05,11,128,35*61
$GPGGA,080109.00,5939.93192,N,01046.67783,E,2,29,0.5,103.21,M,40.68,M,3.2,0123*4D
$GPGSV,3,1,12,24,66,157,52,25,24,245,45,06,13,101,40,14,17,321,41*7F
$GPGSV,3,2,12,17,33,051,46,32,31,309,45,19,46,073,49,12,62,230,51*72
$GPGSV,3,3,12,22,06,004,34,01,05,358,26,10,07,269,40,15,07,184,42*76
$GLGSV,3,1,10,76,66,292,50,84,34,034,42,67,33,321,47,66,33,257,48*6F
$GLGSV,3,2,10,85,44,110,48,75,63,084,52,77,06,279,36,68,02,007,*6C
$GLGSV,3,3,10,74,09,094,46,86,08,158,38*60
$GAGSV,2,1,07,30,79,107,50,07,22,217,43,19,21,325,39,02,26,088,44*65
$GAGSV,2,2,07,14,46,128,49,27,45,262,46,11,10,014,37*5E
$BDGSV,1,1,02,24,61,270,51,05,11,128,35*62
$GPGGA,080110.00,5939.93192,N,01046.67783,E,2,29,0.5,103.21,M,40.68,M,2.6,0123*40
$GPGSV,3,1,12,24,66,157,52,25,24,245,45,06,13,101,40,14,17,321,42*7C
$GPGSV,3,2,12,17,33,051,46,32,31,309,45,19,46,073,48,12,63,230,51*72
$GPGSV,3,3,12,22,06,004,34,01,05,358,25,10,07,269,40,15,07,184,42*75
$GLGSV,3,1,10,76,66,293,50,84,34,034,43,67,33,321,48,66,33,257,48*60
$GLGSV,3,2,10,85,44,110,48,75,63,084,51,77,06,279,37,68,02,007,*6E
$GLGSV,3,3,10,74,08,094,46,86,08,158,38*61
$GAGSV,2,1,07,30,79,107,50,07,22,217,43,19,21,325,39,02,26,088,44*65
$GAGSV,2,2,07,14,46,128,49,27,45,262,46,11,10,014,37*5E
$BDGSV,1,1,02,24,61,270,52,05,11,128,35*61
$GPGGA,080111.00,5939.93193,N,01046.67783,E,2,29,0.5,103.21,M,40.68,M,3.0,0123*47
$GPGSV,3,1,12,24,66,157,52,25,24,245,45,06,13,101,40,14,17,321,42*7C
$GPGSV,3,2,12,17,33,051,46,32,31,309,45,19,46,073,48,12,63,230,51*72
$GPGSV,3,3,12,22,06,004,34,01,05,358,24,10,07,269,40,15,07,184,42*74
$GLGSV,3,1,10,76,66,293,49,84,34,034,42,67,33,321,48,66,33,257,48*69
$GLGSV,3,2,10,85,44,110,48,75,63,084,51,77,06,279,36,68,02,007,*6F
$GLGSV,3,3,10,74,08,094,46,86,08,158,38*61
$GAGSV,2,1,07,30,79,107,50,07,22,217,43,19,21,325,39,02,26,088,44*65
$GAGSV,2,2,07,14,46,128,49,27,45,262,46,11,10,014,37*5E
$BDGSV,1,1,02,24,61,270,52,05,11,128,35*61
$GPGGA,080112.00,5939.93193,N,01046.67783,E,2,29,0.5,103.22,M,40.68,M,1.8,0123*4D
$GPGSV,3,1,12,24,66,157,52,25,24,245,45,06,13,101,40,14,17,321,41*7F
$GPGSV,3,2,12,17,33,051,46,32,31,309,45,19,46,073,49,12,63,230,51*73
$GPGSV,3,3,12,22,06,004,35,01,05,358,26,10,07,269,40,15,07,184,42*77
$GLGSV,3,1,10,76,66,293,49,84,34,034,42,67,33,321,47,66,33,257,48*66
$GLGSV,3,2,10,85,44,110,48,75,63,084,51,77,06,279,36,68,02,007,*6F
$GLGSV,3,3,10,74,08,094,46,86,08,158,36*6F
$GAGSV,2,1,07,30,79,107,50,07,22,217,43,19,21,325,39,02,26,088,44*65
$GAGSV,2,2,07,14,46,128,50,27,45,262,45,11,10,014,37*55
$BDGSV,1,1,02,24,61,270,52,05,11,128,35*61
$GPGGA,080113.00,5939.93193,N,01046.67783,E,2,29,0.5,103.21,M,40.68,M,2.8,0123*4C
$GPGSV,3,1,12,24,66,157,52,25,24,245,45,06,13,101,40,14,17,321,42*7C
$GPGSV,3,2,12,17,33,051,46,32,31,309,45,19,46,073,49,12,63,230,52*70
$GPGSV,3,3,12,22,06,004,35,01,05,358,25,10,07,269,40,15,07,184,42*74
$GLGSV,3,1,10,76,66,293,49,84,34,034,42,67,33,321,47,66,33,257,48*66
$GLGSV,3,2,10,85,44,110,48,75,63,084,51,77,06,279,36,68,03,007,*6E
$GLGSV,3,3,10,74,08,094,46,86,08,158,37*6E
$GAGSV,2,1,07,30,79,107,50,07,22,217,43,19,21,325,39,02,26,088,44*65
$GAGSV,2,2,07,14,46,128,50,27,45,262,46,11,10,014,37*56
$BDGSV,1,1,02,24,61,270,52,05,11,128,34*60
$GPGGA,080114.00,5939.93194,N,01046.67783,E,2,29,0.5,103.21,M,40.68,M,2.4,0123*40
$GPGSV,3,1,12,24,66,157,52,25,24,245,45,06,13,101,40,14,17,321,42*7C
$GPGSV,3,2,12,17,33,051,46,32,31,309,45,19,46,073,49,12,63,230,51*73
$GPGSV,3,3,12,22,06,004,35,01,05,358,26,10,07,269,40,15,07,184,42*77
$GLGSV,3,1,10,76,66,293,49,84,34,034,42,67,33,321,47,66,33,257,48*66
$GLGSV,3,2,10,85,44,110,48,75,63,084,51,77,06,279,36,68,03,007,*6E
$GLGSV,3,3,10,74,08,094,46,86,08,158,37*6E
$GAGSV,2,1,07,30,79,107,50,07,22,217,43,19,21,325,39,02,26,088,44*65
$GAGSV,2,2,07,14,46,128,50,27,45,262,46,11,10,014,37*56
$BDGSV,1,1,02,24,61,270,52,05,11,128,35*61
$GPGGA,080115.00,5939.93193,N,01046.67782,E,2,29,0.5,103.21,M,40.68,M,3.0,0123*42
$GPGSV,3,1,12,24,66,157,52,25,24,245,45,06,13,101,40,14,17,321,42*7C
